{
"type": "FeatureCollection",
"name": "LACoFD_Fire_Station_Locations_(Feature_Layer)_10_21_2020",
"crs": { "type": "name", "properties": { "name": "urn:ogc:def:crs:OGC:1.3:CRS84" } },
"features": [
{ "type": "Feature", "properties": { "OBJECTID": 1, "STANUM": 77, "CITYNAME_A": "COUNTY", "ADDRESS": "46833 Peace Valley Road", "CITY": "Gorman", "STATEZIP": "CA 93243-0002", "BN": 6, "DIV": "III", "REGION": "North" }, "geometry": { "type": "Point", "coordinates": [ -118.797413629792999, 34.759389001344204 ] } },
{ "type": "Feature", "properties": { "OBJECTID": 2, "STANUM": 112, "CITYNAME_A": "COUNTY ", "ADDRESS": "8812 W. Avenue E-8", "CITY": "Lancaster", "STATEZIP": "CA 93535-9662", "BN": 11, "DIV": "V", "REGION": "North" }, "geometry": { "type": "Point", "coordinates": [ -118.288185826149999, 34.754408251469599 ] } },
{ "type": "Feature", "properties": { "OBJECTID": 3, "STANUM": 117, "CITYNAME_A": "LANCASTER", "ADDRESS": "44851 30th Street East", "CITY": "Lancaster", "STATEZIP": "CA 93535-1338", "BN": 11, "DIV": "V", "REGION": "North" }, "geometry": { "type": "Point", "coordinates": [ -118.077471802153994, 34.6986678317677 ] } },
{ "type": "Feature", "properties": { "OBJECTID": 4, "STANUM": 33, "CITYNAME_A": "LANCASTER", "ADDRESS": "44947 Date Avenue", "CITY": "Lancaster", "STATEZIP": "CA 93534-3213", "BN": 11, "DIV": "V", "REGION": "North" }, "geometry": { "type": "Point", "coordinates": [ -118.141390319663998, 34.699391413721997 ] } },
{ "type": "Feature", "properties": { "OBJECTID": 5, "STANUM": 130, "CITYNAME_A": "LANCASTER ", "ADDRESS": "44558 40th Street West", "CITY": "Lancaster", "STATEZIP": "CA 93536-9575 ", "BN": 11, "DIV": "V", "REGION": "North" }, "geometry": { "type": "Point", "coordinates": [ -118.201103771836003, 34.692818865055301 ] } },
{ "type": "Feature", "properties": { "OBJECTID": 6, "STANUM": 78, "CITYNAME_A": "COUNTY", "ADDRESS": "17021 Elizabeth Lake Road", "CITY": "Lake Hughes", "STATEZIP": "CA 93532-9519", "BN": 11, "DIV": "V", "REGION": "North" }, "geometry": { "type": "Point", "coordinates": [ -118.430896482058003, 34.673664969891703 ] } },
{ "type": "Feature", "properties": { "OBJECTID": 7, "STANUM": 135, "CITYNAME_A": "LANCASTER", "ADDRESS": "1846 East Avenue K-4", "CITY": "Lancaster", "STATEZIP": "CA 93535", "BN": 11, "DIV": "V", "REGION": "North" }, "geometry": { "type": "Point", "coordinates": [ -118.095199659778999, 34.671080268284904 ] } },
{ "type": "Feature", "properties": { "OBJECTID": 8, "STANUM": 134, "CITYNAME_A": "LANCASTER", "ADDRESS": "43225 North 25th Street West", "CITY": "Lancaster", "STATEZIP": "CA 93534", "BN": 11, "DIV": "V", "REGION": "North" }, "geometry": { "type": "Point", "coordinates": [ -118.175045113528, 34.668305631638098 ] } },
{ "type": "Feature", "properties": { "OBJECTID": 9, "STANUM": 129, "CITYNAME_A": "PALMDALE", "ADDRESS": "42110 6th Street West", "CITY": "Lancaster", "STATEZIP": "CA 93534-7134", "BN": 11, "DIV": "V", "REGION": "North" }, "geometry": { "type": "Point", "coordinates": [ -118.140790199693996, 34.648073805463397 ] } },
{ "type": "Feature", "properties": { "OBJECTID": 10, "STANUM": 84, "CITYNAME_A": "COUNTY", "ADDRESS": "5030 W. Avenue L-14", "CITY": "Quartz Hill", "STATEZIP": "CA 93536-3622", "BN": 11, "DIV": "V", "REGION": "North" }, "geometry": { "type": "Point", "coordinates": [ -118.219582918251007, 34.647144421394302 ] } },
{ "type": "Feature", "properties": { "OBJECTID": 11, "STANUM": 140, "CITYNAME_A": "COUNTY ", "ADDRESS": "8723 Elizabeth Lake Road", "CITY": "Leona Valley", "STATEZIP": "CA 93551-9715", "BN": 11, "DIV": "V", "REGION": "North" }, "geometry": { "type": "Point", "coordinates": [ -118.284888065218993, 34.617324407604499 ] } },
{ "type": "Feature", "properties": { "OBJECTID": 12, "STANUM": 136, "CITYNAME_A": "PALMDALE", "ADDRESS": "3650 Bolz Ranch Road", "CITY": "Palmdale", "STATEZIP": "CA 93551", "BN": 17, "DIV": "V", "REGION": "North" }, "geometry": { "type": "Point", "coordinates": [ -118.194754879507002, 34.6161581874915 ] } },
{ "type": "Feature", "properties": { "OBJECTID": 13, "STANUM": 114, "CITYNAME_A": "COUNTY", "ADDRESS": "39939 N. 170th Street East", "CITY": "Palmdale", "STATEZIP": "CA 93550-9618", "BN": 17, "DIV": "V", "REGION": "North" }, "geometry": { "type": "Point", "coordinates": [ -117.825437050006997, 34.606902615336701 ] } },
{ "type": "Feature", "properties": { "OBJECTID": 14, "STANUM": 24, "CITYNAME_A": "PALMDALE", "ADDRESS": "1050 W. Avenue P", "CITY": "Palmdale", "STATEZIP": "CA 93550-2932", "BN": 17, "DIV": "V", "REGION": "North" }, "geometry": { "type": "Point", "coordinates": [ -118.149529052128003, 34.601432822078301 ] } },
{ "type": "Feature", "properties": { "OBJECTID": 15, "STANUM": 37, "CITYNAME_A": "PALMDALE", "ADDRESS": "38318 E. 9th Street East", "CITY": "Palmdale", "STATEZIP": "CA 93550-4790", "BN": 17, "DIV": "V", "REGION": "North" }, "geometry": { "type": "Point", "coordinates": [ -118.114002423667998, 34.578137288588401 ] } },
{ "type": "Feature", "properties": { "OBJECTID": 16, "STANUM": 93, "CITYNAME_A": "PALMDALE", "ADDRESS": "5624 E Avenue R", "CITY": "Palmdale", "STATEZIP": "CA 93550", "BN": 17, "DIV": "V", "REGION": "North" }, "geometry": { "type": "Point", "coordinates": [ -118.028679468185004, 34.572196926959201 ] } },
{ "type": "Feature", "properties": { "OBJECTID": 17, "STANUM": 131, "CITYNAME_A": "PALMDALE ", "ADDRESS": "2629 E. Avenue S", "CITY": "Palmdale", "STATEZIP": "CA 93550-4790", "BN": 17, "DIV": "V", "REGION": "North" }, "geometry": { "type": "Point", "coordinates": [ -118.081277021911006, 34.558451714120302 ] } },
{ "type": "Feature", "properties": { "OBJECTID": 18, "STANUM": 92, "CITYNAME_A": "COUNTY", "ADDRESS": "8905 E. Avenue U", "CITY": "Littlerock", "STATEZIP": "CA 93543-9520", "BN": 17, "DIV": "V", "REGION": "North" }, "geometry": { "type": "Point", "coordinates": [ -117.970951076326998, 34.528690371898399 ] } },
{ "type": "Feature", "properties": { "OBJECTID": 19, "STANUM": 81, "CITYNAME_A": "COUNTY", "ADDRESS": "8710 W. Sierra Highway", "CITY": "Agua Dulce", "STATEZIP": "CA 91350-2814", "BN": 22, "DIV": "III", "REGION": "Noth" }, "geometry": { "type": "Point", "coordinates": [ -118.286445522101999, 34.519194340372103 ] } },
{ "type": "Feature", "properties": { "OBJECTID": 20, "STANUM": 79, "CITYNAME_A": "COUNTY", "ADDRESS": "33957 Longview Road", "CITY": "Pearblossom", "STATEZIP": "CA 93553-9704", "BN": 17, "DIV": "V", "REGION": "North" }, "geometry": { "type": "Point", "coordinates": [ -117.896904999244001, 34.502499638650598 ] } },
{ "type": "Feature", "properties": { "OBJECTID": 21, "STANUM": 149, "CITYNAME_A": "COUNTY", "ADDRESS": "31770 Ridge Route Road", "CITY": "Castaic", "STATEZIP": "CA 91384-3329", "BN": 6, "DIV": "III", "REGION": "North" }, "geometry": { "type": "Point", "coordinates": [ -118.616063217114998, 34.496563575014399 ] } },
{ "type": "Feature", "properties": { "OBJECTID": 22, "STANUM": 80, "CITYNAME_A": "COUNTY", "ADDRESS": "1533 W. Sierra Highway", "CITY": "Acton", "STATEZIP": "CA 93510-9740", "BN": 17, "DIV": "V", "REGION": "North" }, "geometry": { "type": "Point", "coordinates": [ -118.142098812588998, 34.487848968876897 ] } },
{ "type": "Feature", "properties": { "OBJECTID": 23, "STANUM": 108, "CITYNAME_A": "COUNTY", "ADDRESS": "28799 N. Rock Canyon Dr.", "CITY": "Santa Clarita", "STATEZIP": "CA 91390-4297", "BN": 22, "DIV": "III", "REGION": "North" }, "geometry": { "type": "Point", "coordinates": [ -118.514667612062993, 34.468810294343598 ] } },
{ "type": "Feature", "properties": { "OBJECTID": 24, "STANUM": 111, "CITYNAME_A": "SANTA CLARITA", "ADDRESS": "26829 Seco Canyon Road", "CITY": "Valencia", "STATEZIP": "CA 91350-2217", "BN": 22, "DIV": "III", "REGION": "North" }, "geometry": { "type": "Point", "coordinates": [ -118.531951978723001, 34.434205452100699 ] } },
{ "type": "Feature", "properties": { "OBJECTID": 25, "STANUM": 107, "CITYNAME_A": "SANTA CLARITA", "ADDRESS": "18239 W. Soledad Canyon Road", "CITY": "Canyon Country", "STATEZIP": "CA 91351-3521", "BN": 22, "DIV": "III", "REGION": "North" }, "geometry": { "type": "Point", "coordinates": [ -118.451212668577995, 34.416775816083799 ] } },
{ "type": "Feature", "properties": { "OBJECTID": 26, "STANUM": 126, "CITYNAME_A": "SANTA CLARITA ", "ADDRESS": "26320 Citrus St.", "CITY": "Santa Clarita", "STATEZIP": "CA 91355", "BN": 6, "DIV": "III", "REGION": "North" }, "geometry": { "type": "Point", "coordinates": [ -118.553235262860994, 34.415080633752801 ] } },
{ "type": "Feature", "properties": { "OBJECTID": 27, "STANUM": 73, "CITYNAME_A": "SANTA CLARITA", "ADDRESS": "24875 N. Railroad Avenue", "CITY": "Newhall", "STATEZIP": "CA 91321-1520", "BN": 6, "DIV": "III", "REGION": "North" }, "geometry": { "type": "Point", "coordinates": [ -118.533816546816993, 34.387489259723097 ] } },
{ "type": "Feature", "properties": { "OBJECTID": 28, "STANUM": 123, "CITYNAME_A": "SANTA CLARITA", "ADDRESS": "26321 N. Sand Canyon Road", "CITY": "Canyon Country", "STATEZIP": "CA 91351-4020", "BN": 22, "DIV": "III", "REGION": "North" }, "geometry": { "type": "Point", "coordinates": [ -118.414078782166001, 34.384962456584503 ] } },
{ "type": "Feature", "properties": { "OBJECTID": 29, "STANUM": 75, "CITYNAME_A": "COUNTY", "ADDRESS": "23310 Lake Manor Drive", "CITY": "Chatsworth", "STATEZIP": "CA 91311-6418", "BN": 6, "DIV": "III", "REGION": "North" }, "geometry": { "type": "Point", "coordinates": [ -118.634776620823004, 34.237794048828299 ] } },
{ "type": "Feature", "properties": { "OBJECTID": 30, "STANUM": 63, "CITYNAME_A": "COUNTY", "ADDRESS": "4526 Ramsdell Avenue", "CITY": "La Cresecenta", "STATEZIP": "CA 91214-2838", "BN": 4, "DIV": "III", "REGION": "North" }, "geometry": { "type": "Point", "coordinates": [ -118.244024414500998, 34.227866980972699 ] } },
{ "type": "Feature", "properties": { "OBJECTID": 31, "STANUM": 19, "CITYNAME_A": "LA CANADA FLINTRIDGE", "ADDRESS": "1729 W. Foothill Blvd.", "CITY": "La Canada Flintridge", "STATEZIP": "CA 91011-2950", "BN": 4, "DIV": "III", "REGION": "North" }, "geometry": { "type": "Point", "coordinates": [ -118.214398299677995, 34.211291604813397 ] } },
{ "type": "Feature", "properties": { "OBJECTID": 32, "STANUM": 82, "CITYNAME_A": "LA CANADA FLINTRIDGE", "ADDRESS": "352 W. Foothill Blvd.", "CITY": "La Canada Flintridge", "STATEZIP": "CA 91011-3501", "BN": 4, "DIV": "III", "REGION": "North" }, "geometry": { "type": "Point", "coordinates": [ -118.186365562709994, 34.197511748850303 ] } },
{ "type": "Feature", "properties": { "OBJECTID": 33, "STANUM": 12, "CITYNAME_A": "COUNTY", "ADDRESS": "2760 N. Lincoln Avenue", "CITY": "Altadena", "STATEZIP": "CA 91001-4961", "BN": 4, "DIV": "III", "REGION": "North" }, "geometry": { "type": "Point", "coordinates": [ -118.158457103572999, 34.192943338130902 ] } },
{ "type": "Feature", "properties": { "OBJECTID": 34, "STANUM": 11, "CITYNAME_A": "COUNTY", "ADDRESS": "2521 N. El Molino Avenue", "CITY": "Altadena", "STATEZIP": "CA 91001-2317", "BN": 4, "DIV": "III", "REGION": "North" }, "geometry": { "type": "Point", "coordinates": [ -118.132825374874997, 34.188582408591401 ] } },
{ "type": "Feature", "properties": { "OBJECTID": 35, "STANUM": 68, "CITYNAME_A": "CALABASAS", "ADDRESS": "24130 Calabasas Road", "CITY": "Calabasas", "STATEZIP": "CA 91302-1511", "BN": 5, "DIV": "VII", "REGION": "Central" }, "geometry": { "type": "Point", "coordinates": [ -118.652348288088007, 34.151739215916599 ] } },
{ "type": "Feature", "properties": { "OBJECTID": 36, "STANUM": 125, "CITYNAME_A": "COUNTY", "ADDRESS": "5215 N. Las Virgenes Road", "CITY": "Calabasas", "STATEZIP": "CA 91302-1061", "BN": 5, "DIV": "VII", "REGION": "Central" }, "geometry": { "type": "Point", "coordinates": [ -118.697782931768003, 34.1511568091532 ] } },
{ "type": "Feature", "properties": { "OBJECTID": 37, "STANUM": 144, "CITYNAME_A": "WESTLAKE VILLAGE", "ADDRESS": "31981 W. Foxfield Drive", "CITY": "Westlake Village", "STATEZIP": "CA 91361-4203", "BN": 5, "DIV": "VII", "REGION": "Central" }, "geometry": { "type": "Point", "coordinates": [ -118.819265268606998, 34.138993353280803 ] } },
{ "type": "Feature", "properties": { "OBJECTID": 38, "STANUM": 44, "CITYNAME_A": "DUARTE", "ADDRESS": "1105 S. Highland Avenue", "CITY": "Duarte", "STATEZIP": "CA 91010-2546", "BN": 16, "DIV": "II", "REGION": "East" }, "geometry": { "type": "Point", "coordinates": [ -117.966943404527001, 34.140715242826801 ] } },
{ "type": "Feature", "properties": { "OBJECTID": 39, "STANUM": 51, "CITYNAME_A": "COUNTY", "ADDRESS": "3900 N. Lankershim Blvd.", "CITY": "Universal City", "STATEZIP": "CA 91608-1085", "BN": 1, "DIV": "VII", "REGION": "Central" }, "geometry": { "type": "Point", "coordinates": [ -118.356630803339996, 34.139552444018399 ] } },
{ "type": "Feature", "properties": { "OBJECTID": 40, "STANUM": 151, "CITYNAME_A": "GLENDORA", "ADDRESS": "231 W. Mountain View Avenue", "CITY": "Glendora", "STATEZIP": "CA 91741-3302", "BN": 2, "DIV": "II", "REGION": "East" }, "geometry": { "type": "Point", "coordinates": [ -117.867669032712001, 34.137799503873197 ] } },
{ "type": "Feature", "properties": { "OBJECTID": 41, "STANUM": 65, "CITYNAME_A": "COUNTY", "ADDRESS": "4206 N. Cornell Road", "CITY": "Agoura", "STATEZIP": "CA 91301-2528", "BN": 5, "DIV": "VII", "REGION": "Central" }, "geometry": { "type": "Point", "coordinates": [ -118.753497605511996, 34.1343896965273 ] } },
{ "type": "Feature", "properties": { "OBJECTID": 42, "STANUM": 62, "CITYNAME_A": "CLAREMONT", "ADDRESS": "3701 N. Mills Avenue", "CITY": "Claremont", "STATEZIP": "CA 91711-1423", "BN": 2, "DIV": "II", "REGION": "East" }, "geometry": { "type": "Point", "coordinates": [ -117.707746156168994, 34.1363174790418 ] } },
{ "type": "Feature", "properties": { "OBJECTID": 43, "STANUM": 32, "CITYNAME_A": "AZUSA", "ADDRESS": "605 N. Angeleno Avenue", "CITY": "Azusa", "STATEZIP": "CA 91702-2904", "BN": 16, "DIV": "II", "REGION": "East" }, "geometry": { "type": "Point", "coordinates": [ -117.910439437099001, 34.131881721227103 ] } },
{ "type": "Feature", "properties": { "OBJECTID": 44, "STANUM": 5, "CITYNAME_A": "COUNTY", "ADDRESS": "7225 N. Rosemead Blvd.", "CITY": "San Gabriel", "STATEZIP": "CA 91775-1315", "BN": 10, "DIV": "IX", "REGION": "East" }, "geometry": { "type": "Point", "coordinates": [ -118.073490175741, 34.128414294365001 ] } },
{ "type": "Feature", "properties": { "OBJECTID": 45, "STANUM": 86, "CITYNAME_A": "GLENDORA", "ADDRESS": "520 S. Amelia Avenue", "CITY": "Glendora", "STATEZIP": "CA 91741-4027", "BN": 2, "DIV": "II", "REGION": "East" }, "geometry": { "type": "Point", "coordinates": [ -117.820176747532003, 34.128217489628398 ] } },
{ "type": "Feature", "properties": { "OBJECTID": 46, "STANUM": 102, "CITYNAME_A": "CLAREMONT", "ADDRESS": "4370 N. Sumner Avenue", "CITY": "Claremont", "STATEZIP": "CA 91711-2493", "BN": 2, "DIV": "II", "REGION": "East" }, "geometry": { "type": "Point", "coordinates": [ -117.738140109341003, 34.1211171848608 ] } },
{ "type": "Feature", "properties": { "OBJECTID": 47, "STANUM": 85, "CITYNAME_A": "GLENDORA", "ADDRESS": "650 E. Gladstone Street", "CITY": "Glendora", "STATEZIP": "CA 91740-5726", "BN": 2, "DIV": "II", "REGION": "East" }, "geometry": { "type": "Point", "coordinates": [ -117.851044986743005, 34.113640799941102 ] } },
{ "type": "Feature", "properties": { "OBJECTID": 48, "STANUM": 47, "CITYNAME_A": "TEMPLE CITY", "ADDRESS": "5946 N. Kauffman Avenue", "CITY": "Temple City", "STATEZIP": "CA 91780-2234", "BN": 10, "DIV": "IX", "REGION": "East" }, "geometry": { "type": "Point", "coordinates": [ -118.058080121483997, 34.108494610561301 ] } },
{ "type": "Feature", "properties": { "OBJECTID": 49, "STANUM": 48, "CITYNAME_A": "IRWINDALE", "ADDRESS": "15546 E. Arrow Hwy.", "CITY": "Irwindale", "STATEZIP": "CA 91706-2001", "BN": 16, "DIV": "II", "REGION": "East" }, "geometry": { "type": "Point", "coordinates": [ -117.941294074091005, 34.106734293916702 ] } },
{ "type": "Feature", "properties": { "OBJECTID": 50, "STANUM": 64, "CITYNAME_A": "SAN DIMAS", "ADDRESS": "164 S. Walnut", "CITY": "San Dimas", "STATEZIP": "CA 91773-2620", "BN": 2, "DIV": "II", "REGION": "East" }, "geometry": { "type": "Point", "coordinates": [ -117.802387289863006, 34.105491253122203 ] } },
{ "type": "Feature", "properties": { "OBJECTID": 51, "STANUM": 101, "CITYNAME_A": "CLAREMONT", "ADDRESS": "606 W. Bonita Avenue", "CITY": "Claremont", "STATEZIP": "CA 91711-4512", "BN": 2, "DIV": "II", "REGION": "East" }, "geometry": { "type": "Point", "coordinates": [ -117.723600505796995, 34.096216174292003 ] } },
{ "type": "Feature", "properties": { "OBJECTID": 52, "STANUM": 153, "CITYNAME_A": "COVINA", "ADDRESS": "1577 E. Cypress Street", "CITY": "Covina", "STATEZIP": "CA 91723", "BN": 16, "DIV": "II", "REGION": "East" }, "geometry": { "type": "Point", "coordinates": [ -117.857596361456999, 34.096121756073003 ] } },
{ "type": "Feature", "properties": { "OBJECTID": 53, "STANUM": 186, "CITYNAME_A": "POMONA", "ADDRESS": "280 E. Bonita Ave.", "CITY": "Pomona", "STATEZIP": "CA 91767-1924", "BN": 15, "DIV": "VIII", "REGION": "East" }, "geometry": { "type": "Point", "coordinates": [ -117.745254517513999, 34.095898646896799 ] } },
{ "type": "Feature", "properties": { "OBJECTID": 54, "STANUM": 152, "CITYNAME_A": "COVINA", "ADDRESS": "807 W. Cypress Street", "CITY": "Covina", "STATEZIP": "CA 91723", "BN": 16, "DIV": "II", "REGION": "East" }, "geometry": { "type": "Point", "coordinates": [ -117.905880028614007, 34.096037807447203 ] } },
{ "type": "Feature", "properties": { "OBJECTID": 55, "STANUM": 169, "CITYNAME_A": "EL MONTE", "ADDRESS": "5112 N. Peck Rd.", "CITY": "El Monte", "STATEZIP": "CA 91732", "BN": 10, "DIV": "IX", "REGION": "East" }, "geometry": { "type": "Point", "coordinates": [ -118.011872108438993, 34.095531527001803 ] } },
{ "type": "Feature", "properties": { "OBJECTID": 56, "STANUM": 29, "CITYNAME_A": "BALDWIN PARK", "ADDRESS": "14334 E. Los Angeles Street", "CITY": "Baldwin Park", "STATEZIP": "CA 91706-2603", "BN": 16, "DIV": "II", "REGION": "East" }, "geometry": { "type": "Point", "coordinates": [ -117.961841584140998, 34.091999540046103 ] } },
{ "type": "Feature", "properties": { "OBJECTID": 57, "STANUM": 8, "CITYNAME_A": "WEST HOLLYWOOD", "ADDRESS": "7643 W. Santa Monica Blvd.", "CITY": "West Hollywood", "STATEZIP": "CA 90046-6408", "BN": 1, "DIV": "VII", "REGION": "Central" }, "geometry": { "type": "Point", "coordinates": [ -118.356470150454996, 34.091036952840703 ] } },
{ "type": "Feature", "properties": { "OBJECTID": 58, "STANUM": 154, "CITYNAME_A": "COVINA", "ADDRESS": "401 N. Second Avenue", "CITY": "Covina", "STATEZIP": "CA 91723", "BN": 16, "DIV": "II", "REGION": "East" }, "geometry": { "type": "Point", "coordinates": [ -117.888334767676, 34.089577398637502 ] } },
{ "type": "Feature", "properties": { "OBJECTID": 59, "STANUM": 7, "CITYNAME_A": "WEST HOLLYWOOD", "ADDRESS": "846 N. San Vincente Blvd.", "CITY": "West Hollywood", "STATEZIP": "CA 90069-4007", "BN": 1, "DIV": "VII", "REGION": "Central" }, "geometry": { "type": "Point", "coordinates": [ -118.385080531151999, 34.086987730907197 ] } },
{ "type": "Feature", "properties": { "OBJECTID": 60, "STANUM": 72, "CITYNAME_A": "COUNTY", "ADDRESS": "1832 S. Decker Canyon Road", "CITY": "Malibu", "STATEZIP": "CA 90265-9613", "BN": 5, "DIV": "VII", "REGION": "Central" }, "geometry": { "type": "Point", "coordinates": [ -118.881135906097995, 34.076631073950502 ] } },
{ "type": "Feature", "properties": { "OBJECTID": 61, "STANUM": 69, "CITYNAME_A": "COUNTY", "ADDRESS": "401 S. Topanga Canyon Blvd.", "CITY": "Topanga", "STATEZIP": "CA 90290-9774", "BN": 5, "DIV": "VII", "REGION": "Central" }, "geometry": { "type": "Point", "coordinates": [ -118.600063731432996, 34.083851038441203 ] } },
{ "type": "Feature", "properties": { "OBJECTID": 62, "STANUM": 42, "CITYNAME_A": "ROSEMEAD", "ADDRESS": "9319 E. Valley Blvd.", "CITY": "Rosemead", "STATEZIP": "CA 91770-1923", "BN": 10, "DIV": "IX", "REGION": "East" }, "geometry": { "type": "Point", "coordinates": [ -118.066594777340001, 34.081359160768301 ] } },
{ "type": "Feature", "properties": { "OBJECTID": 63, "STANUM": 67, "CITYNAME_A": "COUNTY", "ADDRESS": "25801 Piuma Road", "CITY": "Calabasas", "STATEZIP": "CA 91302-1511", "BN": 5, "DIV": "VII", "REGION": "Central" }, "geometry": { "type": "Point", "coordinates": [ -118.694085570534, 34.078083423195103 ] } },
{ "type": "Feature", "properties": { "OBJECTID": 64, "STANUM": 167, "CITYNAME_A": "EL MONTE", "ADDRESS": "11567 Bryant Road", "CITY": "El Monte", "STATEZIP": "CA 91732", "BN": 10, "DIV": "IX", "REGION": "East" }, "geometry": { "type": "Point", "coordinates": [ -118.020809200241004, 34.0789771805104 ] } },
{ "type": "Feature", "properties": { "OBJECTID": 65, "STANUM": 166, "CITYNAME_A": "EL MONTE", "ADDRESS": "3615 Santa Anita Ave.", "CITY": "El Monte", "STATEZIP": "CA 91731", "BN": 10, "DIV": "IX", "REGION": "East" }, "geometry": { "type": "Point", "coordinates": [ -118.041772205268998, 34.075137793545103 ] } },
{ "type": "Feature", "properties": { "OBJECTID": 66, "STANUM": 141, "CITYNAME_A": "SAN DIMAS", "ADDRESS": "1124 W. Puente Avenue", "CITY": "San Dimas", "STATEZIP": "CA 91773-4414", "BN": 2, "DIV": "II", "REGION": "East" }, "geometry": { "type": "Point", "coordinates": [ -117.829460512618994, 34.074598358269299 ] } },
{ "type": "Feature", "properties": { "OBJECTID": 67, "STANUM": 182, "CITYNAME_A": "POMONA", "ADDRESS": "1059 N. White Ave.", "CITY": "Pomona", "STATEZIP": "CA  91768-3038", "BN": 15, "DIV": "VIII", "REGION": "East" }, "geometry": { "type": "Point", "coordinates": [ -117.759563390487997, 34.067689116376997 ] } },
{ "type": "Feature", "properties": { "OBJECTID": 68, "STANUM": 183, "CITYNAME_A": "POMONA", "ADDRESS": "708 N. San Antonio Ave", "CITY": "Pomona", "STATEZIP": "CA  91767-4910", "BN": 15, "DIV": "VIII", "REGION": "East" }, "geometry": { "type": "Point", "coordinates": [ -117.736357503131003, 34.065620318809501 ] } },
{ "type": "Feature", "properties": { "OBJECTID": 69, "STANUM": 168, "CITYNAME_A": "EL MONTE", "ADDRESS": "3207 Cogswell Rd.", "CITY": "El Monte", "STATEZIP": "CA 91732", "BN": 10, "DIV": "IX", "REGION": "East" }, "geometry": { "type": "Point", "coordinates": [ -118.018433297266995, 34.064588036529898 ] } },
{ "type": "Feature", "properties": { "OBJECTID": 70, "STANUM": 184, "CITYNAME_A": "POMONA", "ADDRESS": "1980 W. Orange Grove Ave.", "CITY": "Pomona", "STATEZIP": "CA  91768-2046", "BN": 15, "DIV": "VIII", "REGION": "East" }, "geometry": { "type": "Point", "coordinates": [ -117.784820244855993, 34.062970576287398 ] } },
{ "type": "Feature", "properties": { "OBJECTID": 71, "STANUM": 4, "CITYNAME_A": "ROSEMEAD", "ADDRESS": "2644 N. San Gabriel Blvd.", "CITY": "Rosemead", "STATEZIP": "CA 91770-3254", "BN": 10, "DIV": "IX", "REGION": "East" }, "geometry": { "type": "Point", "coordinates": [ -118.090176190728002, 34.0602502239229 ] } },
{ "type": "Feature", "properties": { "OBJECTID": 72, "STANUM": 90, "CITYNAME_A": "SOUTH EL MONTE", "ADDRESS": "10115 E. Rush Street", "CITY": "So. El Monte", "STATEZIP": "CA 91733-3223", "BN": 10, "DIV": "IX", "REGION": "East" }, "geometry": { "type": "Point", "coordinates": [ -118.049368512168996, 34.052105778604798 ] } },
{ "type": "Feature", "properties": { "OBJECTID": 73, "STANUM": 1, "CITYNAME_A": "COUNTY", "ADDRESS": "1108 N. Eastern Avenue", "CITY": "Los Angeles", "STATEZIP": "CA 90063-3216", "BN": 3, "DIV": "IX", "REGION": "East" }, "geometry": { "type": "Point", "coordinates": [ -118.170778488810996, 34.049829801252898 ] } },
{ "type": "Feature", "properties": { "OBJECTID": 74, "STANUM": 187, "CITYNAME_A": "POMONA", "ADDRESS": "3325 W. Temple Ave", "CITY": "Pomona", "STATEZIP": "CA 91768-3256", "BN": 19, "DIV": "VIII", "REGION": "East" }, "geometry": { "type": "Point", "coordinates": [ -117.808283149380003, 34.046305553658797 ] } },
{ "type": "Feature", "properties": { "OBJECTID": 75, "STANUM": 87, "CITYNAME_A": "COUNTY", "ADDRESS": "140 S. Second Avenue", "CITY": "Industry", "STATEZIP": "CA 91746-2413", "BN": 12, "DIV": "VIII", "REGION": "East" }, "geometry": { "type": "Point", "coordinates": [ -117.993313227898994, 34.046063176508902 ] } },
{ "type": "Feature", "properties": { "OBJECTID": 76, "STANUM": 146, "CITYNAME_A": "WALNUT", "ADDRESS": "20604 E. Loyalton Drive", "CITY": "Walnut", "STATEZIP": "CA 91789-1216", "BN": 19, "DIV": "VIII", "REGION": "East" }, "geometry": { "type": "Point", "coordinates": [ -117.852792765247997, 34.045093623221803 ] } },
{ "type": "Feature", "properties": { "OBJECTID": 77, "STANUM": 99, "CITYNAME_A": "MALIBU", "ADDRESS": "32550 Pacific Coast Highway", "CITY": "Malibu", "STATEZIP": "CA 90265-253", "BN": 5, "DIV": "VII", "REGION": "Central" }, "geometry": { "type": "Point", "coordinates": [ -118.883607458838995, 34.039939185280197 ] } },
{ "type": "Feature", "properties": { "OBJECTID": 78, "STANUM": 70, "CITYNAME_A": "MALIBU", "ADDRESS": "3970 Carbon Canyon Road", "CITY": "Malibu", "STATEZIP": "CA 90265-5005", "BN": 5, "DIV": "VII", "REGION": "Central" }, "geometry": { "type": "Point", "coordinates": [ -118.649623255026, 34.038449823269602 ] } },
{ "type": "Feature", "properties": { "OBJECTID": 79, "STANUM": 185, "CITYNAME_A": "POMONA", "ADDRESS": "925 E. Lexington Ave.", "CITY": "Pomona", "STATEZIP": "CA  91766-5204", "BN": 15, "DIV": "VIII", "REGION": "East" }, "geometry": { "type": "Point", "coordinates": [ -117.737982486871005, 34.037531004676303 ] } },
{ "type": "Feature", "properties": { "OBJECTID": 80, "STANUM": 26, "CITYNAME_A": "LA PUENTE", "ADDRESS": "15336 E. Elliott Avenue", "CITY": "La Puente", "STATEZIP": "CA 91744-2710", "BN": 12, "DIV": "VIII", "REGION": "East" }, "geometry": { "type": "Point", "coordinates": [ -117.951328001066997, 34.036270482998901 ] } },
{ "type": "Feature", "properties": { "OBJECTID": 81, "STANUM": 88, "CITYNAME_A": "MALIBU", "ADDRESS": "23720 W. Malibu Road", "CITY": "Malibu", "STATEZIP": "CA 90265-4603", "BN": 5, "DIV": "VII", "REGION": "Central" }, "geometry": { "type": "Point", "coordinates": [ -118.691781664095004, 34.033548217650299 ] } },
{ "type": "Feature", "properties": { "OBJECTID": 82, "STANUM": 188, "CITYNAME_A": "POMONA", "ADDRESS": "18-A Village Loop Rd.", "CITY": "Pomona", "STATEZIP": "CA 91766-4811 ", "BN": 15, "DIV": "VIII", "REGION": "East" }, "geometry": { "type": "Point", "coordinates": [ -117.770034717377996, 34.0337018961105 ] } },
{ "type": "Feature", "properties": { "OBJECTID": 83, "STANUM": 121, "CITYNAME_A": "DIAMOND BAR", "ADDRESS": "346 Armitos Place", "CITY": "Diamond Bar", "STATEZIP": "CA 91765-1838", "BN": 19, "DIV": "VIII", "REGION": "East" }, "geometry": { "type": "Point", "coordinates": [ -117.793271570428004, 34.025995288418201 ] } },
{ "type": "Feature", "properties": { "OBJECTID": 84, "STANUM": 3, "CITYNAME_A": "COUNTY", "ADDRESS": "930 S. Eastern Avenue", "CITY": "Los Angeles", "STATEZIP": "CA 90022-4801", "BN": 3, "DIV": "IX", "REGION": "East" }, "geometry": { "type": "Point", "coordinates": [ -118.173586636457003, 34.023010435883698 ] } },
{ "type": "Feature", "properties": { "OBJECTID": 85, "STANUM": 71, "CITYNAME_A": "MALIBU", "ADDRESS": "28722 W. Pacific Coast Hwy.", "CITY": "Malibu", "STATEZIP": "CA 90265-3902", "BN": 5, "DIV": "VII", "REGION": "Central" }, "geometry": { "type": "Point", "coordinates": [ -118.797383900536005, 34.020163389614403 ] } },
{ "type": "Feature", "properties": { "OBJECTID": 86, "STANUM": 61, "CITYNAME_A": "WALNUT", "ADDRESS": "20011 La Puente Road", "CITY": "Walnut", "STATEZIP": "CA 91789-1719", "BN": 19, "DIV": "VIII", "REGION": "East" }, "geometry": { "type": "Point", "coordinates": [ -117.865657844409, 34.020797269143898 ] } },
{ "type": "Feature", "properties": { "OBJECTID": 87, "STANUM": 22, "CITYNAME_A": "CITY OF COMMERCE", "ADDRESS": "928 S. Gerhart Avenue", "CITY": "Commerce", "STATEZIP": "CA 90022-4108", "BN": 3, "DIV": "IX", "REGION": "East" }, "geometry": { "type": "Point", "coordinates": [ -118.146922398754, 34.017330208461999 ] } },
{ "type": "Feature", "properties": { "OBJECTID": 88, "STANUM": 43, "CITYNAME_A": "CITY OF INDUSTRY", "ADDRESS": "921 S. Stimson Avenue", "CITY": "La Puente", "STATEZIP": "CA 91746-2413", "BN": 12, "DIV": "VIII", "REGION": "East" }, "geometry": { "type": "Point", "coordinates": [ -117.955762939636998, 34.010342380717702 ] } },
{ "type": "Feature", "properties": { "OBJECTID": 89, "STANUM": 120, "CITYNAME_A": "DIAMOND BAR", "ADDRESS": "1051 S. Grand Avenue", "CITY": "Diamond Bar", "STATEZIP": "CA 91765-2210", "BN": 19, "DIV": "VIII", "REGION": "East" }, "geometry": { "type": "Point", "coordinates": [ -117.814228878389997, 34.001905553112799 ] } },
{ "type": "Feature", "properties": { "OBJECTID": 90, "STANUM": 40, "CITYNAME_A": "PICO RIVERA", "ADDRESS": "4864 S. Durfee Avenue", "CITY": "Pico Rivera", "STATEZIP": "CA 90660-2459", "BN": 8, "DIV": "IV", "REGION": "East" }, "geometry": { "type": "Point", "coordinates": [ -118.078388832475, 34.001434011328797 ] } },
{ "type": "Feature", "properties": { "OBJECTID": 91, "STANUM": 50, "CITYNAME_A": "CITY OF COMMERCE", "ADDRESS": "2327 S. Saybrook Avenue", "CITY": "Commerce", "STATEZIP": "CA 90040-1721", "BN": 3, "DIV": "IX", "REGION": "East" }, "geometry": { "type": "Point", "coordinates": [ -118.140597680857994, 34.000939292641 ] } },
{ "type": "Feature", "properties": { "OBJECTID": 92, "STANUM": 118, "CITYNAME_A": "CITY OF INDUSTRY", "ADDRESS": "17056 Gale Avenue", "CITY": "City of Industry", "STATEZIP": "CA 91748-1511", "BN": 12, "DIV": "VIII", "REGION": "East" }, "geometry": { "type": "Point", "coordinates": [ -117.935494466662007, 34.000240724625201 ] } },
{ "type": "Feature", "properties": { "OBJECTID": 93, "STANUM": 91, "CITYNAME_A": "COUNTY", "ADDRESS": "2691 S. Turnbull Canyon Road", "CITY": "Hacienda Heights", "STATEZIP": "CA 91745-5135", "BN": 12, "DIV": "VIII", "REGION": "East" }, "geometry": { "type": "Point", "coordinates": [ -117.988444429029997, 33.9965423160467 ] } },
{ "type": "Feature", "properties": { "OBJECTID": 94, "STANUM": 145, "CITYNAME_A": "COUNTY", "ADDRESS": "1525 S. Nogales Street", "CITY": "Rowland Heights", "STATEZIP": "CA 91748-2256", "BN": 12, "DIV": "VIII", "REGION": "East" }, "geometry": { "type": "Point", "coordinates": [ -117.889535653530999, 33.989314916001703 ] } },
{ "type": "Feature", "properties": { "OBJECTID": 95, "STANUM": 27, "CITYNAME_A": "CITY OF COMMERCE", "ADDRESS": "6031 Rickenbacker Road", "CITY": "Commerce", "STATEZIP": "CA 90040-3031", "BN": 3, "DIV": "IX", "REGION": "East" }, "geometry": { "type": "Point", "coordinates": [ -118.154113296454, 33.988483250704803 ] } },
{ "type": "Feature", "properties": { "OBJECTID": 96, "STANUM": 58, "CITYNAME_A": "COUNTY", "ADDRESS": "5757 S. Fairfax Avenue", "CITY": "Los Angeles", "STATEZIP": "CA 90056-1243", "BN": 1, "DIV": "VII", "REGION": "Central" }, "geometry": { "type": "Point", "coordinates": [ -118.363156409084993, 33.987899533623199 ] } },
{ "type": "Feature", "properties": { "OBJECTID": 97, "STANUM": 110, "CITYNAME_A": "COUNTY", "ADDRESS": "4433 Admiralty Way", "CITY": "Marina Del Rey", "STATEZIP": "CA 90292-5415", "BN": 1, "DIV": "VII", "REGION": "Central" }, "geometry": { "type": "Point", "coordinates": [ -118.448583347341994, 33.983925580525302 ] } },
{ "type": "Feature", "properties": { "OBJECTID": 98, "STANUM": 164, "CITYNAME_A": "HUNTINGTON PARK", "ADDRESS": "6301 S. Santa Fe Ave.", "CITY": "Huntington Park", "STATEZIP": "CA 90255-3805", "BN": 13, "DIV": "VI", "REGION": "Central" }, "geometry": { "type": "Point", "coordinates": [ -118.230584626566994, 33.983337587289498 ] } },
{ "type": "Feature", "properties": { "OBJECTID": 99, "STANUM": 103, "CITYNAME_A": "PICO RIVERA", "ADDRESS": "7300 S. Paramount Blvd.", "CITY": "Pico Rivera", "STATEZIP": "CA 90660-3714", "BN": 8, "DIV": "IV", "REGION": "East" }, "geometry": { "type": "Point", "coordinates": [ -118.108175427969002, 33.982786385379796 ] } },
{ "type": "Feature", "properties": { "OBJECTID": 100, "STANUM": 17, "CITYNAME_A": "WHITTIER", "ADDRESS": "12006 Hadley Street", "CITY": "Whittier", "STATEZIP": "CA 90601-3910", "BN": 8, "DIV": "IV", "REGION": "East" }, "geometry": { "type": "Point", "coordinates": [ -118.048868985488994, 33.9825062273081 ] } },
{ "type": "Feature", "properties": { "OBJECTID": 101, "STANUM": 163, "CITYNAME_A": "BELL", "ADDRESS": "6320 Pine Ave.", "CITY": "Bell", "STATEZIP": "CA 90201-1221", "BN": 3, "DIV": "IX", "REGION": "East" }, "geometry": { "type": "Point", "coordinates": [ -118.188523909951996, 33.979430021861297 ] } },
{ "type": "Feature", "properties": { "OBJECTID": 102, "STANUM": 165, "CITYNAME_A": "HUNTINGTON PARK", "ADDRESS": "3255 Saturn Ave.", "CITY": "Huntington Park", "STATEZIP": "CA 90255-5449", "BN": 13, "DIV": "VI", "REGION": "Central" }, "geometry": { "type": "Point", "coordinates": [ -118.208506149010006, 33.976275583227299 ] } },
{ "type": "Feature", "properties": { "OBJECTID": 103, "STANUM": 119, "CITYNAME_A": "DIAMOND BAR", "ADDRESS": "20480 E. Pathfinder Road", "CITY": "Walnut", "STATEZIP": "CA 91789-4620", "BN": 19, "DIV": "VIII", "REGION": "East" }, "geometry": { "type": "Point", "coordinates": [ -117.855450000063001, 33.976352312274798 ] } },
{ "type": "Feature", "properties": { "OBJECTID": 104, "STANUM": 28, "CITYNAME_A": "WHITTIER", "ADDRESS": "7733 Greenleaf Avenue", "CITY": "Whittier", "STATEZIP": "CA 90602-2195", "BN": 8, "DIV": "IV", "REGION": "East" }, "geometry": { "type": "Point", "coordinates": [ -118.037682255578005, 33.970900562710199 ] } },
{ "type": "Feature", "properties": { "OBJECTID": 105, "STANUM": 25, "CITYNAME_A": "PICO RIVERA", "ADDRESS": "9209 E. Saluson Avenue", "CITY": "Pico Rivera", "STATEZIP": "CA 90660-4524", "BN": 8, "DIV": "IV", "REGION": "East" }, "geometry": { "type": "Point", "coordinates": [ -118.100416591628999, 33.969870641508898 ] } },
{ "type": "Feature", "properties": { "OBJECTID": 106, "STANUM": 16, "CITYNAME_A": "COUNTY", "ADDRESS": "8010 S. Compton Avenue", "CITY": "Los Angeles", "STATEZIP": "CA 9001-1437", "BN": 13, "DIV": "VI", "REGION": "Central" }, "geometry": { "type": "Point", "coordinates": [ -118.247417960232994, 33.966264100495103 ] } },
{ "type": "Feature", "properties": { "OBJECTID": 107, "STANUM": 171, "CITYNAME_A": "INGLEWOOD ", "ADDRESS": "141 W. Regent St.", "CITY": "Inglewood", "STATEZIP": "CA 90301", "BN": 20, "DIV": "VI", "REGION": "Central" }, "geometry": { "type": "Point", "coordinates": [ -118.356821308156995, 33.964721636875304 ] } },
{ "type": "Feature", "properties": { "OBJECTID": 108, "STANUM": 173, "CITYNAME_A": "INGLEWOOD ", "ADDRESS": "9001 S. Crenshaw Blvd.", "CITY": "Inglewood", "STATEZIP": "CA 90305", "BN": 20, "DIV": "VI", "REGION": "Central" }, "geometry": { "type": "Point", "coordinates": [ -118.326757587022001, 33.955727541696 ] } },
{ "type": "Feature", "properties": { "OBJECTID": 109, "STANUM": 54, "CITYNAME_A": "SOUTH GATE", "ADDRESS": "4867 Southern Avenue", "CITY": "South Gate", "STATEZIP": "CA 90280-3466", "BN": 13, "DIV": "VI", "REGION": "Central" }, "geometry": { "type": "Point", "coordinates": [ -118.183871185805998, 33.948498122022698 ] } },
{ "type": "Feature", "properties": { "OBJECTID": 110, "STANUM": 59, "CITYNAME_A": "WHITTIER", "ADDRESS": "10021 Scott Avenue", "CITY": "Whittier", "STATEZIP": "CA 90603-2119", "BN": 8, "DIV": "IV", "REGION": "East" }, "geometry": { "type": "Point", "coordinates": [ -118.001066116686005, 33.946447546444297 ] } },
{ "type": "Feature", "properties": { "OBJECTID": 111, "STANUM": 14, "CITYNAME_A": "COUNTY", "ADDRESS": "1401 W. 108th Street", "CITY": "Los Angeles", "STATEZIP": "CA 90047-4905", "BN": 20, "DIV": "VI", "REGION": "Central" }, "geometry": { "type": "Point", "coordinates": [ -118.300563085914007, 33.938499628085403 ] } },
{ "type": "Feature", "properties": { "OBJECTID": 112, "STANUM": 170, "CITYNAME_A": "INGLEWOOD", "ADDRESS": "10701 S. Crenshaw Blvd.", "CITY": "Inglewood", "STATEZIP": "CA 90303", "BN": 20, "DIV": "VI", "REGION": "Central" }, "geometry": { "type": "Point", "coordinates": [ -118.326838421123, 33.938414794308898 ] } },
{ "type": "Feature", "properties": { "OBJECTID": 113, "STANUM": 18, "CITYNAME_A": "COUNTY", "ADDRESS": "4518 W. Lennox Blvd.", "CITY": "Inglewood", "STATEZIP": "CA 90304-2216", "BN": 20, "DIV": "VI", "REGION": "Central" }, "geometry": { "type": "Point", "coordinates": [ -118.355611087971994, 33.937946967119998 ] } },
{ "type": "Feature", "properties": { "OBJECTID": 114, "STANUM": 96, "CITYNAME_A": "COUNTY", "ADDRESS": "10630 S. Mills Avenue", "CITY": "Whittier", "STATEZIP": "CA 90604-2441", "BN": 8, "DIV": "IV", "REGION": "East" }, "geometry": { "type": "Point", "coordinates": [ -118.039987421608004, 33.937078684749501 ] } },
{ "type": "Feature", "properties": { "OBJECTID": 115, "STANUM": 191, "CITYNAME_A": "LA HABRA ", "ADDRESS": "850 W. La Habra Blvd.", "CITY": "La Habra", "STATEZIP": "CA 90631", "BN": 21, "DIV": "IV", "REGION": "East" }, "geometry": { "type": "Point", "coordinates": [ -117.955702297892003, 33.931653626031697 ] } },
{ "type": "Feature", "properties": { "OBJECTID": 116, "STANUM": 147, "CITYNAME_A": "LYNWOOD ", "ADDRESS": "3161 E. Imperial Highway", "CITY": "Lynwood ", "STATEZIP": "CA 90262", "BN": 13, "DIV": "VI", "REGION": "Central" }, "geometry": { "type": "Point", "coordinates": [ -118.214258421728005, 33.930525483417597 ] } },
{ "type": "Feature", "properties": { "OBJECTID": 117, "STANUM": 15, "CITYNAME_A": "COUNTY", "ADDRESS": "11460 Santa Gertrudes", "CITY": "Whittier", "STATEZIP": "CA 90604-3411", "BN": 21, "DIV": "IV", "REGION": "East" }, "geometry": { "type": "Point", "coordinates": [ -117.993432954308005, 33.929695849546299 ] } },
{ "type": "Feature", "properties": { "OBJECTID": 118, "STANUM": 192, "CITYNAME_A": "LA HABRA ", "ADDRESS": "520 S. Harbor Blvd.", "CITY": "La Habra", "STATEZIP": "CA 90631", "BN": 21, "DIV": "IV", "REGION": "East" }, "geometry": { "type": "Point", "coordinates": [ -117.932556130167001, 33.926983939412303 ] } },
{ "type": "Feature", "properties": { "OBJECTID": 119, "STANUM": 41, "CITYNAME_A": "COUNTY", "ADDRESS": "1815 E. 120th Street", "CITY": "Los Angeles", "STATEZIP": "CA 90059-3005", "BN": 7, "DIV": "I", "REGION": "Central" }, "geometry": { "type": "Point", "coordinates": [ -118.240213714847997, 33.924881272276302 ] } },
{ "type": "Feature", "properties": { "OBJECTID": 120, "STANUM": 57, "CITYNAME_A": "SOUTH GATE", "ADDRESS": "5720 Gardendale Street", "CITY": "South Gate", "STATEZIP": "CA 90280-7806", "BN": 13, "DIV": "VI", "REGION": "Central" }, "geometry": { "type": "Point", "coordinates": [ -118.168260872399003, 33.922381359746097 ] } },
{ "type": "Feature", "properties": { "OBJECTID": 121, "STANUM": 148, "CITYNAME_A": "LYNWOOD ", "ADDRESS": "4264 Martin Luther King Jr Bl", "CITY": "Lynwood", "STATEZIP": "CA 90602 ", "BN": 13, "DIV": "VI", "REGION": "Central" }, "geometry": { "type": "Point", "coordinates": [ -118.190376108189994, 33.922179135658602 ] } },
{ "type": "Feature", "properties": { "OBJECTID": 122, "STANUM": 162, "CITYNAME_A": "HAWTHORNE", "ADDRESS": "12151 Crenshaw Blvd.", "CITY": "Hawthorne", "STATEZIP": "CA 90250-3301", "BN": 18, "DIV": "I", "REGION": "Central" }, "geometry": { "type": "Point", "coordinates": [ -118.326831630878999, 33.921884758966598 ] } },
{ "type": "Feature", "properties": { "OBJECTID": 123, "STANUM": 161, "CITYNAME_A": "HAWTHORNE", "ADDRESS": "4475 West El Segundo Blvd.", "CITY": "Hawthorne", "STATEZIP": "CA 90250-4411", "BN": 18, "DIV": "I", "REGION": "Central" }, "geometry": { "type": "Point", "coordinates": [ -118.354424899761995, 33.916672101117399 ] } },
{ "type": "Feature", "properties": { "OBJECTID": 124, "STANUM": 20, "CITYNAME_A": "NORWALK", "ADDRESS": "12110 E. Adoree Street", "CITY": "Norwalk", "STATEZIP": "CA 90650-3002", "BN": 21, "DIV": "IV", "REGION": "East" }, "geometry": { "type": "Point", "coordinates": [ -118.074163414097995, 33.9131350247035 ] } },
{ "type": "Feature", "properties": { "OBJECTID": 125, "STANUM": 159, "CITYNAME_A": "GARDENA ", "ADDRESS": "2030 W. 135th Street", "CITY": "Gardena", "STATEZIP": "CA 90249", "BN": 18, "DIV": "I", "REGION": "Central" }, "geometry": { "type": "Point", "coordinates": [ -118.314668078173995, 33.908972688417201 ] } },
{ "type": "Feature", "properties": { "OBJECTID": 126, "STANUM": 193, "CITYNAME_A": "LA HABRA ", "ADDRESS": "1000 Risner Way", "CITY": "La Habra", "STATEZIP": "CA 90631", "BN": 21, "DIV": "IV", "REGION": "East" }, "geometry": { "type": "Point", "coordinates": [ -117.957385970093995, 33.907416943176699 ] } },
{ "type": "Feature", "properties": { "OBJECTID": 127, "STANUM": 49, "CITYNAME_A": "LA MIRADA", "ADDRESS": "13820 S. La Mirada Blvd.", "CITY": "La Mirada", "STATEZIP": "CA 90638-3029", "BN": 21, "DIV": "IV", "REGION": "East" }, "geometry": { "type": "Point", "coordinates": [ -118.011415080581997, 33.905073853135598 ] } },
{ "type": "Feature", "properties": { "OBJECTID": 128, "STANUM": 160, "CITYNAME_A": "HAWTHORNE", "ADDRESS": "5323 West Rosecrans Avenue", "CITY": "Hawthorne", "STATEZIP": "CA 90250-6622", "BN": 18, "DIV": "I", "REGION": "Central" }, "geometry": { "type": "Point", "coordinates": [ -118.372926400756995, 33.902135799081201 ] } },
{ "type": "Feature", "properties": { "OBJECTID": 129, "STANUM": 98, "CITYNAME_A": "BELLFLOWER", "ADDRESS": "9814 Maplewood Street", "CITY": "Bellflower", "STATEZIP": "CA 9070-3103", "BN": 9, "DIV": "IV", "REGION": "East" }, "geometry": { "type": "Point", "coordinates": [ -118.124933717399998, 33.899878080126697 ] } },
{ "type": "Feature", "properties": { "OBJECTID": 130, "STANUM": 21, "CITYNAME_A": "LAWNDALE", "ADDRESS": "4312 W. 147th Street", "CITY": "Lawndale", "STATEZIP": "CA 90260-1509", "BN": 18, "DIV": "I", "REGION": "Central" }, "geometry": { "type": "Point", "coordinates": [ -118.351129757451005, 33.897989837756199 ] } },
{ "type": "Feature", "properties": { "OBJECTID": 131, "STANUM": 31, "CITYNAME_A": "PARAMOUNT", "ADDRESS": "7521 E. Somerset Blvd.", "CITY": "Paramount", "STATEZIP": "CA 90723-4003", "BN": 9, "DIV": "IV", "REGION": "East" }, "geometry": { "type": "Point", "coordinates": [ -118.168054464332997, 33.896707572725902 ] } },
{ "type": "Feature", "properties": { "OBJECTID": 132, "STANUM": 95, "CITYNAME_A": "COUNTY", "ADDRESS": "137 W. Redondo Beach Blvd.", "CITY": "Gardena", "STATEZIP": "CA 90248-2220", "BN": 7, "DIV": "I", "REGION": "Central" }, "geometry": { "type": "Point", "coordinates": [ -118.277612073537, 33.893166761432902 ] } },
{ "type": "Feature", "properties": { "OBJECTID": 133, "STANUM": 115, "CITYNAME_A": "NORWALK", "ADDRESS": "11317 Alondra Blvd.", "CITY": "Norwalk", "STATEZIP": "CA 90650-6225", "BN": 21, "DIV": "IV", "REGION": "East" }, "geometry": { "type": "Point", "coordinates": [ -118.092139965436999, 33.887819493260103 ] } },
{ "type": "Feature", "properties": { "OBJECTID": 134, "STANUM": 158, "CITYNAME_A": "GARDENA", "ADDRESS": "1650 W. 162nd Street", "CITY": "Gardena", "STATEZIP": "CA 90247", "BN": 18, "DIV": "I", "REGION": "Central" }, "geometry": { "type": "Point", "coordinates": [ -118.306065650034, 33.883496914555003 ] } },
{ "type": "Feature", "properties": { "OBJECTID": 135, "STANUM": 23, "CITYNAME_A": "BELLFLOWER", "ADDRESS": "9548 E. Flower Street", "CITY": "Bellflower", "STATEZIP": "CA 90706-5708", "BN": 9, "DIV": "IV", "REGION": "East" }, "geometry": { "type": "Point", "coordinates": [ -118.130146902147999, 33.881803289604399 ] } },
{ "type": "Feature", "properties": { "OBJECTID": 136, "STANUM": 35, "CITYNAME_A": "CERRITOS", "ADDRESS": "13717 Artesia Blvd.", "CITY": "Cerritos", "STATEZIP": "CA 90701-4804", "BN": 21, "DIV": "IV", "REGION": "East" }, "geometry": { "type": "Point", "coordinates": [ -118.039411321062005, 33.873632569063702 ] } },
{ "type": "Feature", "properties": { "OBJECTID": 137, "STANUM": 116, "CITYNAME_A": "CARSON", "ADDRESS": "755 E. Victoria Street", "CITY": "Carson", "STATEZIP": "CA 90746-1534", "BN": 7, "DIV": "I", "REGION": "Central" }, "geometry": { "type": "Point", "coordinates": [ -118.261871941571997, 33.867404279078599 ] } },
{ "type": "Feature", "properties": { "OBJECTID": 138, "STANUM": 105, "CITYNAME_A": "COUNTY", "ADDRESS": "18915 S. Santa Fe Avenue", "CITY": "Compton", "STATEZIP": "CA 90221-5907", "BN": 7, "DIV": "I", "REGION": "Central" }, "geometry": { "type": "Point", "coordinates": [ -118.21654636945, 33.859802744513502 ] } },
{ "type": "Feature", "properties": { "OBJECTID": 139, "STANUM": 30, "CITYNAME_A": "ARTESIA", "ADDRESS": "19030 Pioneer Blvd.", "CITY": "Cerritos", "STATEZIP": "CA 90701-6602", "BN": 9, "DIV": "IV", "REGION": "East" }, "geometry": { "type": "Point", "coordinates": [ -118.081696192026001, 33.8575604856347 ] } },
{ "type": "Feature", "properties": { "OBJECTID": 140, "STANUM": 45, "CITYNAME_A": "LAKEWOOD", "ADDRESS": "4020 Candlewood Street", "CITY": "Lakewood", "STATEZIP": "CA 90712-1620", "BN": 9, "DIV": "IV", "REGION": "East" }, "geometry": { "type": "Point", "coordinates": [ -118.144207270256004, 33.853563913475199 ] } },
{ "type": "Feature", "properties": { "OBJECTID": 141, "STANUM": 10, "CITYNAME_A": "CARSON", "ADDRESS": "1860 E. Del Amo", "CITY": "Carson", "STATEZIP": "CA 90746-2940", "BN": 7, "DIV": "I", "REGION": "Central" }, "geometry": { "type": "Point", "coordinates": [ -118.235487217027995, 33.846425147051903 ] } },
{ "type": "Feature", "properties": { "OBJECTID": 142, "STANUM": 94, "CITYNAME_A": "LAKEWOOD", "ADDRESS": "6421 E. Turnergrove Drive", "CITY": "Lakewood", "STATEZIP": "CA 90713-2706", "BN": 9, "DIV": "IV", "REGION": "East" }, "geometry": { "type": "Point", "coordinates": [ -118.106860094889001, 33.846408006754501 ] } },
{ "type": "Feature", "properties": { "OBJECTID": 143, "STANUM": 34, "CITYNAME_A": "HAWAIIAN GARDENS", "ADDRESS": "21207 S. Norwalk Blvd.", "CITY": "Hawaiian Gardens", "STATEZIP": "CA 90716-1020", "BN": 9, "DIV": "IV", "REGION": "East" }, "geometry": { "type": "Point", "coordinates": [ -118.072275165049007, 33.8369881040514 ] } },
{ "type": "Feature", "properties": { "OBJECTID": 144, "STANUM": 122, "CITYNAME_A": "LAKEWOOD", "ADDRESS": "2600 Greenmeadow Road", "CITY": "Lakewood", "STATEZIP": "CA 90712-3906", "BN": 9, "DIV": "IV", "REGION": "East" }, "geometry": { "type": "Point", "coordinates": [ -118.160839020745996, 33.833672694605902 ] } },
{ "type": "Feature", "properties": { "OBJECTID": 145, "STANUM": 36, "CITYNAME_A": "CARSON", "ADDRESS": "127 W. 223rd Street", "CITY": "Carson", "STATEZIP": "CA 90745-3702", "BN": 7, "DIV": "I", "REGION": "Central" }, "geometry": { "type": "Point", "coordinates": [ -118.277133626384995, 33.824693654640797 ] } },
{ "type": "Feature", "properties": { "OBJECTID": 146, "STANUM": 127, "CITYNAME_A": "CARSON", "ADDRESS": "2049 E. 223rd Street", "CITY": "Carson", "STATEZIP": "CA 90810-1061", "BN": 7, "DIV": "I", "REGION": "Central" }, "geometry": { "type": "Point", "coordinates": [ -118.238362852140995, 33.8246464498894 ] } },
{ "type": "Feature", "properties": { "OBJECTID": 147, "STANUM": 60, "CITYNAME_A": "SIGNAL HILL", "ADDRESS": "2300 East 27th Street", "CITY": "Signal Hill", "STATEZIP": "CA 90705", "BN": 9, "DIV": "IV", "REGION": "East" }, "geometry": { "type": "Point", "coordinates": [ -118.164100620208998, 33.805997147656299 ] } },
{ "type": "Feature", "properties": { "OBJECTID": 148, "STANUM": 156, "CITYNAME_A": "COUNTY", "ADDRESS": "24525 Copper Hill Drive", "CITY": "Valencia", "STATEZIP": "CA 91354", "BN": 6, "DIV": "III", "REGION": "North" }, "geometry": { "type": "Point", "coordinates": [ -118.566545106225007, 34.453999525209497 ] } },
{ "type": "Feature", "properties": { "OBJECTID": 149, "STANUM": 150, "CITYNAME_A": "SANTA CLARITA", "ADDRESS": "19190 Golden Valley Rd", "CITY": "Santa Clarita", "STATEZIP": "CA 91387", "BN": 22, "DIV": "III", "REGION": "North" }, "geometry": { "type": "Point", "coordinates": [ -118.464999084411005, 34.392249394327898 ] } },
{ "type": "Feature", "properties": { "OBJECTID": 150, "STANUM": 38, "CITYNAME_A": "COUNTY", "ADDRESS": "3907 W. 54th Street", "CITY": "Los Angeles", "STATEZIP": "CA 90043-2203", "BN": 1, "DIV": "VII", "REGION": "Central" }, "geometry": { "type": "Point", "coordinates": [ -118.342435493337007, 33.993283763219701 ] } },
{ "type": "Feature", "properties": { "OBJECTID": 151, "STANUM": 39, "CITYNAME_A": "BELL GARDENS", "ADDRESS": "7000 Garfield Avenue", "CITY": "Bell Gardens", "STATEZIP": "CA 90201", "BN": 3, "DIV": "IX", "REGION": "East" }, "geometry": { "type": "Point", "coordinates": [ -118.149253341614994, 33.968942758708401 ] } },
{ "type": "Feature", "properties": { "OBJECTID": 152, "STANUM": 55, "CITYNAME_A": "AVALON", "ADDRESS": "945 Avalon Canyon Rd.", "CITY": "Avalon", "STATEZIP": "CA 90704-0663", "BN": 14, "DIV": "I", "REGION": "Central" }, "geometry": { "type": "Point", "coordinates": [ -118.335489802721, 33.333126260823697 ] } },
{ "type": "Feature", "properties": { "OBJECTID": 153, "STANUM": 66, "CITYNAME_A": "PASADENA", "ADDRESS": "2764 E. Eaton Canyon Dr ", "CITY": "Pasadena", "STATEZIP": "CA 91107-1005", "BN": 4, "DIV": "III", "REGION": "North" }, "geometry": { "type": "Point", "coordinates": [ -118.093794901109007, 34.174430874035103 ] } },
{ "type": "Feature", "properties": { "OBJECTID": 154, "STANUM": 74, "CITYNAME_A": "COUNTY", "ADDRESS": "12587 N. Dexter Park Road", "CITY": "San Fernando", "STATEZIP": "CA 91342-5613", "BN": 4, "DIV": "III", "REGION": "North" }, "geometry": { "type": "Point", "coordinates": [ -118.375785525319003, 34.2958436253112 ] } },
{ "type": "Feature", "properties": { "OBJECTID": 155, "STANUM": 76, "CITYNAME_A": "COUNTY", "ADDRESS": "27223 Henry Mayo Drive", "CITY": "Valencia", "STATEZIP": "CA 91355-1009", "BN": 6, "DIV": "III", "REGION": "North" }, "geometry": { "type": "Point", "coordinates": [ -118.610506595081006, 34.4390550597901 ] } },
{ "type": "Feature", "properties": { "OBJECTID": 156, "STANUM": 89, "CITYNAME_A": "AGOURA HILLS ", "ADDRESS": "29575 Canwood St.", "CITY": "Agoura Hills ", "STATEZIP": "CA 91301 ", "BN": 5, "DIV": "VII", "REGION": "Central" }, "geometry": { "type": "Point", "coordinates": [ -118.769256666443994, 34.147878061418297 ] } },
{ "type": "Feature", "properties": { "OBJECTID": 157, "STANUM": 124, "CITYNAME_A": "COUNTY", "ADDRESS": "25870 Hemingway Av.", "CITY": "Stevenson Ranch", "STATEZIP": "CA 91381", "BN": 6, "DIV": "III", "REGION": "North" }, "geometry": { "type": "Point", "coordinates": [ -118.582256731268998, 34.387471656869202 ] } },
{ "type": "Feature", "properties": { "OBJECTID": 158, "STANUM": 128, "CITYNAME_A": "COUNTY", "ADDRESS": "28450 Whites Canyon Road", "CITY": "Santa Clarita", "STATEZIP": "CA 91351", "BN": 22, "DIV": "III", "REGION": "North" }, "geometry": { "type": "Point", "coordinates": [ -118.472586048484004, 34.441934303057401 ] } },
{ "type": "Feature", "properties": { "OBJECTID": 159, "STANUM": 132, "CITYNAME_A": "SANTA CLARITA", "ADDRESS": "29310 Sand Canyon Road", "CITY": "Santa Clarita", "STATEZIP": "CA 91387", "BN": 22, "DIV": "III", "REGION": "North" }, "geometry": { "type": "Point", "coordinates": [ -118.417657567126994, 34.439262532242097 ] } },
{ "type": "Feature", "properties": { "OBJECTID": 160, "STANUM": 155, "CITYNAME_A": "COUNTY", "ADDRESS": "Two Harbors", "CITY": "Two Harbors", "STATEZIP": "CA 90704", "BN": 14, "DIV": "I", "REGION": "Central" }, "geometry": { "type": "Point", "coordinates": [ -118.500393858452, 33.4411652598736 ] } },
{ "type": "Feature", "properties": { "OBJECTID": 161, "STANUM": 157, "CITYNAME_A": "COUNTY ", "ADDRESS": "15921 Spunky Canyon Road", "CITY": "Green Valley", "STATEZIP": "CA 91350-1030", "BN": 11, "DIV": "V", "REGION": "North" }, "geometry": { "type": "Point", "coordinates": [ -118.410145649246004, 34.617945344149099 ] } },
{ "type": "Feature", "properties": { "OBJECTID": 162, "STANUM": 194, "CITYNAME_A": "LA MIRADA", "ADDRESS": "13540 S. Beach Blvd.", "CITY": "La Mirada", "STATEZIP": "CA 90638", "BN": 21, "DIV": "IV", "REGION": "East" }, "geometry": { "type": "Point", "coordinates": [ -117.976797397962997, 33.909142719374202 ] } },
{ "type": "Feature", "properties": { "OBJECTID": 163, "STANUM": 172, "CITYNAME_A": "INGLEWOOD", "ADDRESS": "810 Centinela Avenue", "CITY": "Inglewood", "STATEZIP": "CA 90302", "BN": 20, "DIV": "VI", "REGION": "Central" }, "geometry": { "type": "Point", "coordinates": [ -118.353376804353999, 33.976156084263302 ] } },
{ "type": "Feature", "properties": { "OBJECTID": 164, "STANUM": 143, "CITYNAME_A": "CASTAIC", "ADDRESS": "28580 Hasley Canyon Road", "CITY": "Castaic", "STATEZIP": "CA 91355", "BN": 6, "DIV": "III", "REGION": "North" }, "geometry": { "type": "Point", "coordinates": [ -118.633718210135996, 34.454363909665098 ] } },
{ "type": "Feature", "properties": { "OBJECTID": 165, "STANUM": 97, "CITYNAME_A": "COUNTY", "ADDRESS": "18543 E. Sierra Madre Avenue", "CITY": "Azusa", "STATEZIP": "CA 91702-1552", "BN": 16, "DIV": "II", "REGION": "East" }, "geometry": { "type": "Point", "coordinates": [ -117.891004279141995, 34.146757327928697 ] } },
{ "type": "Feature", "properties": { "OBJECTID": 166, "STANUM": 2, "CITYNAME_A": "PALOS VERDES ESTATES", "ADDRESS": "340 Palos Verdes Drive W.", "CITY": "Palos Verdes Estates", "STATEZIP": "CA 90274-1299", "BN": 14, "DIV": "I", "REGION": "Central" }, "geometry": { "type": "Point", "coordinates": [ -118.391647470986996, 33.799931265531399 ] } },
{ "type": "Feature", "properties": { "OBJECTID": 167, "STANUM": 6, "CITYNAME_A": "LOMITA", "ADDRESS": "25517 S. Narbonne Avenue", "CITY": "Lomita", "STATEZIP": "CA 90717-2511", "BN": 14, "DIV": "I", "REGION": "Central" }, "geometry": { "type": "Point", "coordinates": [ -118.320240081975001, 33.791853429181103 ] } },
{ "type": "Feature", "properties": { "OBJECTID": 168, "STANUM": 106, "CITYNAME_A": "ROLLING HILLS ESTATES", "ADDRESS": "27413 Indian Peak Road", "CITY": "Rolling Hills Estate", "STATEZIP": "CA 90274-3503", "BN": 14, "DIV": "I", "REGION": "Central" }, "geometry": { "type": "Point", "coordinates": [ -118.376320086804, 33.772096188676997 ] } },
{ "type": "Feature", "properties": { "OBJECTID": 169, "STANUM": 56, "CITYNAME_A": "ROLLING HILLS", "ADDRESS": "12 Crest Road West", "CITY": "Rolling Hills", "STATEZIP": "CA 90274-5058", "BN": 14, "DIV": "I", "REGION": "Central" }, "geometry": { "type": "Point", "coordinates": [ -118.354062062362004, 33.756683616509598 ] } },
{ "type": "Feature", "properties": { "OBJECTID": 170, "STANUM": 83, "CITYNAME_A": "RANCHO PALOS VERDES", "ADDRESS": "83 Miraleste Plaza", "CITY": "Rancho Palos Verdes", "STATEZIP": "CA 90274-6525", "BN": 14, "DIV": "I", "REGION": "Central" }, "geometry": { "type": "Point", "coordinates": [ -118.325103555184995, 33.749189308781503 ] } },
{ "type": "Feature", "properties": { "OBJECTID": 171, "STANUM": 53, "CITYNAME_A": "RANCHO PALOS VERDES", "ADDRESS": "6124 W. Palos Verdes Drive S", "CITY": "Rancho Palos Verdes", "STATEZIP": "CA 90274-5935", "BN": 14, "DIV": "I", "REGION": "Central" }, "geometry": { "type": "Point", "coordinates": [ -118.384574800718994, 33.7447689456747 ] } },
{ "type": "Feature", "properties": { "OBJECTID": 172, "STANUM": 104, "CITYNAME_A": "SANTA CLARITA ", "ADDRESS": "26901 Golden Valley Rd.", "CITY": "Santa Clarita", "STATEZIP": "CA 91351", "BN": 22, "DIV": "III", "REGION": "North" }, "geometry": { "type": "Point", "coordinates": [ -118.506746782031001, 34.4282539125646 ] } },
{ "type": "Feature", "properties": { "OBJECTID": 173, "STANUM": 100, "CITYNAME_A": "HERMOSA BEACH", "ADDRESS": "540 Pier Avenue", "CITY": "Hermosa Beach", "STATEZIP": "CA 90254", "BN": 18, "DIV": "I", "REGION": "Central" }, "geometry": { "type": "Point", "coordinates": [ -118.396642403328002, 33.864145092835699 ] } },
{ "type": "Feature", "properties": { "OBJECTID": 174, "STANUM": 13, "CITYNAME_A": "VERNON", "ADDRESS": "3375 Fruitland Ave.", "CITY": "Vernon", "STATEZIP": "CA 90058", "BN": 13, "DIV": "VI", "REGION": "Central" }, "geometry": { "type": "Point", "coordinates": [ -118.205583438180994, 33.9969700486063 ] } },
{ "type": "Feature", "properties": { "OBJECTID": 175, "STANUM": 52, "CITYNAME_A": "VERNON", "ADDRESS": "4301 S. Santa Fe Ave.", "CITY": "Vernon", "STATEZIP": "CA 90058", "BN": 13, "DIV": "VI", "REGION": "Central" }, "geometry": { "type": "Point", "coordinates": [ -118.230512185023997, 34.005512071635103 ] } }
]
}
